City_ID,City,Lat,Lng,Max Temp,Humidity,Cloudiness,Wind Speed,Country,Date
0,hawaiian paradise park,19.5933,-154.9731,24.39,82,40,3.6,US,1694454322
1,blackmans bay,-43.0167,147.3167,9.18,82,100,1.77,AU,1694454322
2,sungai penuh,-2.0833,101.3833,17.88,94,28,1.63,ID,1694454323
3,port-aux-francais,-49.35,70.2167,2.06,81,87,9.15,TF,1694454323
4,misratah,32.3754,15.0925,25.89,68,6,5.14,LY,1694454323
5,arraial do cabo,-22.9661,-42.0278,26.98,57,0,10.8,BR,1694454323
6,waitangi,-43.9535,-176.5597,12.68,88,100,5.36,NZ,1694454324
7,posto fiscal rolim de moura,-13.0833,-62.2667,34.17,37,73,0.98,BR,1694454324
8,margaret river,-33.95,115.0667,16.32,87,10,6.95,AU,1694454324
9,katsuura,35.1333,140.3,25.42,80,82,2.9,JP,1694454325
10,adamstown,-25.066,-130.1015,22.01,86,33,12.32,PN,1694454325
11,invercargill,-46.4,168.35,5.57,83,75,2.24,NZ,1694454325
12,taoudenni,22.6783,-3.9836,43.19,11,21,4.26,ML,1694454326
13,sao fidelis,-21.6461,-41.7469,27.97,36,52,3.38,BR,1694454034
14,ust-nera,64.5667,143.2,-1.81,89,72,3.27,RU,1694454326
15,hamilton,39.1834,-84.5333,29.39,54,0,2.24,US,1694454196
16,hithadhoo,-0.6,73.0833,28.14,76,98,4.23,MV,1694454327
17,dapa,9.7594,126.0531,28.0,76,100,5.26,PH,1694454327
18,dzhalagash,45.0833,64.6667,15.59,51,36,6.92,KZ,1694454327
19,raja,8.4596,25.678,24.34,84,84,2.2,SS,1694454327
20,tarauaca,-8.1614,-70.7656,33.35,44,96,1.19,BR,1694454328
21,isafjordur,66.0755,-23.124,9.02,61,0,3.6,IS,1694454328
22,georgetown,5.4112,100.3354,27.96,89,20,1.54,MY,1694454328
23,atafu village,-8.5421,-172.5159,28.02,76,68,5.49,TK,1694454328
24,aykhal,66.0,111.5,2.62,97,94,4.12,RU,1694454329
25,new norfolk,-42.7826,147.0587,9.84,87,100,0.9,AU,1694454329
26,bilibino,68.0546,166.4372,1.45,85,9,1.88,RU,1694454329
27,stanley,54.868,-1.6985,15.4,91,20,3.6,GB,1694454329
28,aswan,24.0934,32.907,41.61,12,0,5.14,EG,1694454330
29,grytviken,-54.2811,-36.5092,-2.69,79,20,3.98,GS,1694454330
30,lihue,21.9789,-159.3672,24.09,84,40,6.17,US,1694454330
31,west island,-12.1568,96.8225,24.99,78,40,5.14,CC,1694454331
32,guayaramerin,-10.8368,-65.3614,33.03,52,40,3.09,BO,1694454331
33,olonkinbyen,70.9221,-8.7187,2.89,76,100,6.14,SJ,1694454331
34,altamira,-3.2033,-52.2064,35.05,52,75,3.6,BR,1694454205
35,paraiso,9.8383,-83.8656,25.53,76,54,1.09,CR,1694454295
36,lashio,22.9333,97.75,20.63,99,92,0.25,MM,1694454332
37,jiwani,25.05,61.7417,26.74,85,16,4.7,PK,1694454332
38,banda aceh,5.5577,95.3222,26.61,84,92,3.11,ID,1694454332
39,girifalco,38.8243,16.4241,21.05,78,18,1.03,IT,1694454333
40,edinburgh of the seven seas,-37.0676,-12.3116,13.72,89,100,10.89,SH,1694454333
41,porto novo,6.4965,2.6036,26.9,84,87,4.71,BJ,1694454333
42,roosevelt,33.9668,-103.4505,24.95,37,74,3.2,US,1694454334
43,puerto baquerizo moreno,-0.9,-89.6,26.55,74,75,7.72,EC,1694454334
44,puerto natales,-51.7236,-72.4875,7.46,74,100,1.64,CL,1694454334
45,motueka,-41.1333,173.0167,7.28,89,48,2.19,NZ,1694454334
46,puerto ayora,-0.7393,-90.3518,26.98,88,40,3.13,EC,1694454335
47,juankoski,63.0667,28.35,17.92,94,52,2.47,FI,1694454335
48,aasiaat,68.7098,-52.8699,2.55,86,100,3.52,GL,1694454335
49,bethel,41.3712,-73.414,27.84,75,100,1.54,US,1694454336
50,tamandare,-8.7597,-35.1047,26.87,61,60,4.24,BR,1694454337
51,punta arenas,-53.15,-70.9167,5.06,81,75,2.57,CL,1694454046
52,wailua homesteads,22.0669,-159.378,23.75,85,40,6.17,US,1694454337
53,tura,25.5198,90.2201,23.68,91,27,2.07,IN,1694454338
54,namibe,-15.1961,12.1522,18.06,88,38,3.89,AO,1694454338
55,la passe,45.5549,-0.8967,26.13,78,72,4.56,FR,1694454338
56,narimanov,46.6927,47.8498,15.95,36,42,3.84,RU,1694454339
57,avarua,-21.2078,-159.775,21.03,64,100,4.63,CK,1694454040
58,kingscliff,-28.2667,153.5667,14.31,72,0,3.09,AU,1694454339
59,albany,42.6001,-73.9662,23.83,90,99,1.61,US,1694454231
60,kongolo,-5.3833,27.0,27.71,47,25,0.69,CD,1694454340
61,katagum,12.2867,10.3527,33.77,27,67,4.02,NG,1694454340
62,el porvenir,13.7617,-87.3458,30.63,40,31,2.79,HN,1694454340
63,essaouira,31.5125,-9.77,25.72,61,40,6.69,MA,1694454341
64,kolwezi,-10.7148,25.4667,23.76,27,28,1.06,CD,1694454116
65,tidjikja,18.5564,-11.4271,35.53,31,94,6.14,MR,1694454341
66,ambovombe,-25.1667,46.0833,21.99,76,0,2.14,MG,1694454341
67,walvis bay,-22.9575,14.5053,16.53,44,0,10.29,NA,1694454342
68,lompoc,34.6391,-120.4579,23.8,72,75,2.06,US,1694454169
69,talnakh,69.4865,88.3972,12.34,95,100,4.72,RU,1694454342
70,gizo,-8.103,156.8419,26.91,78,76,8.23,SB,1694454342
71,newman,37.3138,-121.0208,27.81,17,31,2.37,US,1694454343
72,vilyuchinsk,52.9306,158.4028,7.15,79,66,5.24,RU,1694454343
73,howrah,22.5892,88.3103,30.0,89,75,2.06,IN,1694454343
74,praia da vitoria,38.7333,-27.0667,25.42,73,20,2.0,PT,1694454343
75,kodiak,57.79,-152.4072,6.73,81,0,2.57,US,1694454126
76,sao gabriel da cachoeira,-0.1303,-67.0892,32.89,66,40,2.57,BR,1694454344
77,fortuna,40.5982,-124.1573,19.96,80,75,2.06,US,1694454344
78,mana,5.6592,-53.7767,29.69,70,99,4.99,GF,1694454345
79,bredasdorp,-34.5322,20.0403,7.68,61,53,2.92,ZA,1694454345
80,papatowai,-46.5619,169.4708,2.99,89,39,3.89,NZ,1694454345
81,al bawiti,28.3492,28.8659,29.63,41,10,8.14,EG,1694454346
82,zaragoza,41.6561,-0.8773,24.33,64,20,7.2,ES,1694454162
83,taltal,-25.4,-70.4833,16.05,78,79,0.9,CL,1694454346
84,alice springs,-23.7,133.8833,7.75,34,0,0.0,AU,1694454346
85,waddan,29.1614,16.139,27.44,32,0,6.35,LY,1694454346
86,ahwa,20.75,73.6833,22.32,94,33,2.99,IN,1694454347
87,karratha,-20.7377,116.8463,24.25,55,3,4.38,AU,1694454347
88,zag,46.9441,99.165,7.13,55,83,1.58,MN,1694454347
89,kokoda,-8.8785,147.7407,22.05,80,82,0.69,PG,1694454348
90,hadibu,12.65,54.0333,26.87,81,66,7.82,YE,1694454348
91,la ronge,55.1001,-105.2842,16.14,59,20,6.17,CA,1694454348
92,san patricio,28.017,-97.5169,34.4,33,3,4.52,US,1694454348
93,haiku-pauwela,20.9219,-156.3051,26.13,63,0,6.69,US,1694454349
94,konkwesso,10.8469,4.0984,29.55,69,47,0.77,NG,1694454349
95,ispica,36.7844,14.9063,25.35,61,5,2.07,IT,1694454350
96,carnarvon,-24.8667,113.6333,19.34,82,33,3.98,AU,1694454350
97,el calafate,-50.3408,-72.2768,4.79,66,73,1.15,AR,1694454350
98,tiksi,71.6872,128.8694,4.24,75,92,6.97,RU,1694454351
99,suva,-18.1416,178.4415,19.71,94,20,0.0,FJ,1694454351
100,fort st. john,56.2499,-120.8529,15.94,55,100,1.54,CA,1694454351
101,dossor,47.5272,52.9811,17.19,45,59,2.43,KZ,1694454352
102,kisangani,0.5167,25.2,22.53,96,61,0.23,CD,1694454352
103,ushuaia,-54.8,-68.3,5.81,75,75,3.09,AR,1694454352
104,qamdo,31.1667,97.2333,1.81,94,100,1.71,CN,1694454352
105,ilulissat,69.2167,-51.1,4.01,56,75,2.06,GL,1694454353
106,kourou,5.1552,-52.6478,30.03,62,89,5.27,GF,1694454113
107,tobol'sk,58.2,68.2667,13.66,69,5,3.57,RU,1694454244
108,nova sintra,14.8667,-24.7167,24.63,79,55,2.84,CV,1694454353
109,sawakin,19.1059,37.3321,32.16,54,69,3.22,SD,1694454354
110,porbandar,21.6422,69.6093,27.16,84,95,5.83,IN,1694454354
111,neiafu,-18.65,-173.9833,23.38,83,40,4.63,TO,1694454354
112,saipan,15.1355,145.701,27.39,83,40,4.12,MP,1694454354
113,longyearbyen,78.2186,15.6401,1.91,80,20,2.57,SJ,1694454354
114,mateur,37.0405,9.6656,26.79,64,49,4.71,TN,1694454355
115,iskateley,67.6803,53.1512,11.24,89,91,2.48,RU,1694454355
116,huarmey,-10.0681,-78.1522,19.7,83,20,6.66,PE,1694454355
117,spring creek,40.7266,-115.5859,22.94,24,4,1.26,US,1694454072
118,sinop,41.7711,34.8709,11.78,86,29,0.16,TR,1694454356
119,reforma,18.1,-91.0167,30.83,63,93,1.8,MX,1694454356
120,tosontsengel,48.7567,98.2839,8.56,52,89,1.5,MN,1694454356
121,newnham,-41.3833,147.1333,8.53,87,100,5.66,AU,1694454357
122,ancud,-41.8697,-73.8203,9.51,76,13,6.55,CL,1694454357
123,kuching,1.55,110.3333,27.79,94,20,1.03,MY,1694454357
124,remire-montjoly,4.9167,-52.2667,30.02,70,75,1.03,GF,1694454357
125,machico,32.7,-16.7667,25.35,69,20,2.06,PT,1694454358
126,labrador city,52.9463,-66.9114,17.95,42,40,3.6,CA,1694454358
127,nurota,40.5614,65.6886,17.24,39,0,2.1,UZ,1694454358
128,utrik,11.2278,169.8474,29.09,79,55,8.64,MH,1694454358
129,blackpool,53.8167,-3.05,19.27,85,75,2.06,GB,1694454359
130,northam,51.0333,-4.2167,19.25,92,8,3.14,GB,1694454359
131,cill airne,52.05,-9.5167,15.03,88,75,4.63,IE,1694454359
132,nova olimpia,-14.7972,-57.2881,40.96,16,5,2.93,BR,1694454360
133,chitungwiza,-18.0127,31.0756,19.04,26,0,0.9,ZW,1694454360
134,teguise,29.0605,-13.564,25.12,50,20,6.17,ES,1694454360
135,mata-utu,-13.2816,-176.1745,26.99,79,19,6.66,WF,1694454360
136,chimore,-16.9833,-65.1333,39.75,21,0,3.65,BO,1694454360
137,kyren,51.6828,102.1408,6.57,84,15,1.06,RU,1694454361
138,tolanaro,-25.0319,46.9987,23.04,73,20,9.77,MG,1694454361
139,college,64.8569,-147.8028,7.99,93,100,3.09,US,1694454361
140,thompson,55.7435,-97.8558,15.09,55,20,1.54,CA,1694454362
141,klyuchi,52.2667,79.1667,15.19,67,100,8.04,RU,1694454362
142,chibougamau,49.9168,-74.3659,18.79,48,100,3.09,CA,1694454362
143,ocumare del tuy,10.1165,-66.7761,36.16,42,20,4.19,VE,1694454363
144,angaur state,6.906,134.13,28.01,75,87,5.26,PW,1694454364
145,port alfred,-33.5906,26.891,11.77,73,67,4.92,ZA,1694454365
146,san antonio de pale,-1.4014,5.6325,23.52,84,98,5.68,GQ,1694454365
147,basotu,-4.3667,35.0833,21.91,53,98,1.5,TZ,1694454366
148,samsun,41.25,36.3333,19.42,64,40,5.14,TR,1694454366
149,bukavu,-2.5083,28.8608,18.2,87,98,0.47,CD,1694454366
150,prainha,-1.8,-53.48,36.58,33,5,2.83,BR,1694454366
151,bandundu,-3.3167,17.3667,30.48,45,100,1.61,CD,1694454367
152,berdigestyakh,62.0989,126.6992,0.11,96,100,2.0,RU,1694454367
153,dudinka,69.4058,86.1778,12.57,84,100,6.79,RU,1694454367
154,tazovsky,67.4667,78.7,10.86,71,94,4.35,RU,1694454368
155,tralee,52.2704,-9.7026,15.14,88,75,4.63,IE,1694454186
156,santa cruz,-17.8,-63.1667,35.7,43,20,11.32,BO,1694454368
157,xilin hot,43.9667,116.0333,7.44,47,6,1.57,CN,1694454368
158,laascaanood,8.4774,47.3597,29.34,42,27,11.85,SO,1694454369
159,fale old settlement,-9.3852,-171.2468,27.72,78,98,5.41,TK,1694454369
160,harper,4.375,-7.7169,25.59,84,66,4.16,LR,1694454369
161,east london,-33.0153,27.9116,12.52,62,0,12.86,ZA,1694454369
162,ribeira grande,38.5167,-28.7,24.22,73,20,4.12,PT,1694454369
163,kavaratti,10.5669,72.642,27.64,81,100,6.13,IN,1694454370
164,fort bragg,35.139,-79.006,31.06,56,0,1.54,US,1694454370
165,homer,59.6425,-151.5483,8.76,93,75,1.54,US,1694454365
166,colonia,50.9333,6.95,27.75,59,0,2.57,DE,1694454370
167,juneau,58.3019,-134.4197,13.45,92,100,6.17,US,1694454371
168,al kharijah,25.4514,30.5464,32.41,21,2,4.86,EG,1694454371
169,hammerfest,70.6634,23.6821,8.25,93,75,5.14,NO,1694454371
170,praia,14.9215,-23.5087,27.3,89,75,4.63,CV,1694454371
171,aurangabad,19.8833,75.3333,23.17,89,19,6.11,IN,1694454192
172,hermanus,-34.4187,19.2345,7.67,76,34,2.55,ZA,1694454372
173,petropavlovsk-kamchatsky,53.0452,158.6483,6.33,93,0,3.0,RU,1694454372
174,levuka,50.1834,-105.4011,16.9,67,75,5.66,CA,1694454372
175,yanchep,-31.55,115.6833,14.97,86,1,3.56,AU,1694454372
176,st. john's,47.5649,-52.7093,18.97,83,75,4.12,CA,1694454373
177,parabel',58.6978,81.4825,7.44,90,25,2.26,RU,1694454373
178,bandar abbas,27.1865,56.2808,32.99,84,20,2.06,IR,1694454373
179,yellowknife,62.456,-114.3525,16.34,82,75,6.71,CA,1694454223
180,kavieng,-2.5744,150.7967,27.34,80,100,5.3,PG,1694454374
181,port-vila,-17.7338,168.3219,23.13,80,81,6.92,VU,1694454371
182,red hill,33.9996,-79.2581,31.74,63,6,2.23,US,1694454374
183,qaqortoq,60.7167,-46.0333,4.09,87,98,3.63,GL,1694454374
184,murzuq,25.9155,13.9184,29.58,24,0,4.73,LY,1694454374
185,nahiyat ash shinafiyah,31.5874,44.6602,36.05,17,0,2.67,IQ,1694454375
186,indiana,40.0003,-86.2503,26.79,56,40,3.09,US,1694454139
187,portland,45.5234,-122.6762,22.35,66,75,1.79,US,1694454227
188,brumado,-14.2036,-41.6653,31.07,31,14,5.63,BR,1694454375
189,magadan,59.5667,150.8,3.89,75,24,1.29,RU,1694454375
190,redencao,-4.2258,-38.7306,34.52,34,0,6.25,BR,1694454376
191,sarmiento,-45.5882,-69.07,11.25,35,99,13.26,AR,1694454376
192,kencong,-8.2833,113.3667,22.74,95,66,0.26,ID,1694454376
193,pecan plantation,32.3604,-97.6756,29.32,46,0,4.63,US,1694454376
194,sambava,-14.2667,50.1667,22.13,85,34,4.01,MG,1694454377
195,horta,38.5333,-28.6333,23.8,81,20,4.12,PT,1694454377
196,iqaluit,63.7506,-68.5145,2.85,86,100,2.06,CA,1694454377
197,sadovoye,47.7764,44.5089,18.59,42,89,5.44,RU,1694454377
198,chanika,-5.4167,38.0167,20.53,82,42,2.86,TZ,1694454378
199,vorgashor,67.5833,63.95,12.07,84,59,3.88,RU,1694454378
200,uturoa,-16.7333,-151.4333,24.87,78,6,2.39,PF,1694454378
201,weno,7.4515,151.8468,24.97,100,100,0.0,FM,1694454378
202,happy valley-goose bay,53.3168,-60.3315,19.17,52,75,0.0,CA,1694454379
203,callao,-12.0667,-77.15,23.18,73,100,4.63,PE,1694454379
204,tshabong,-26.05,22.45,8.43,42,3,6.84,BW,1694454379
205,quellon,-43.1167,-73.6167,13.14,62,75,5.14,CL,1694454379
206,hefei,31.8639,117.2808,24.01,94,75,2.0,CN,1694454201
207,erdenet,49.0333,104.0833,5.6,83,8,1.55,MN,1694454380
208,rongelap,11.1635,166.8941,28.75,79,52,6.44,MH,1694454380
209,pangody,65.85,74.4859,12.1,77,77,5.45,RU,1694454380
210,mtwara,-10.2667,40.1833,25.63,78,20,5.14,TZ,1694454380
211,udachny,66.4167,112.4,5.25,100,99,3.0,RU,1694454381
212,villa regina,-39.1,-67.0667,17.77,15,0,3.58,AR,1694454381
213,afaahiti,-17.75,-149.2833,22.93,96,69,7.25,PF,1694454381
214,kapuskasing,49.4169,-82.4331,12.05,76,100,3.6,CA,1694454381
215,izmail,45.3493,28.8408,19.16,62,12,4.81,UA,1694454382
216,la gi,10.6667,107.7833,25.25,88,58,4.35,VN,1694454382
217,ust-tsilma,65.441,52.1498,11.39,87,75,1.01,RU,1694454382
218,boende,-0.2167,20.8667,24.78,82,77,0.61,CD,1694454382
219,shevchenko,48.5,35.0,18.93,41,42,1.52,UA,1694454383
220,kulhudhuffushi,6.6221,73.07,26.38,75,100,2.43,MV,1694454383
221,gaoual,11.75,-13.2,27.84,89,97,0.84,GN,1694454383
222,priargunsk,50.3691,119.1012,5.79,91,65,2.19,RU,1694454384
223,mumbwa,-14.9783,27.0619,24.87,17,0,1.91,ZM,1694454384
224,katabu,-4.9333,122.5167,23.09,89,27,1.87,ID,1694454384
225,san fernando de apure,7.8878,-67.4724,31.33,68,20,1.08,VE,1694454384
226,xiongzhou,25.1167,114.3,24.51,94,97,0.43,CN,1694454385
227,raduzhny,62.0961,77.475,13.36,50,100,1.81,RU,1694454385
228,shenkursk,62.1091,42.896,11.51,86,7,1.74,RU,1694454385
229,privolzhskiy,51.4,46.0333,15.15,55,83,4.97,RU,1694454386
230,erenhot,43.6475,111.9767,13.13,34,10,2.09,CN,1694454386
231,nar'yan-mar,67.6713,53.087,12.31,89,95,2.39,RU,1694454386
232,bubaque,11.2833,-15.8333,27.48,80,96,6.02,GW,1694454386
233,nangomba,-10.9,38.5,25.22,65,60,4.19,TZ,1694454387
234,lebu,-37.6167,-73.65,11.51,67,24,3.8,CL,1694454159
235,montepuez,-13.1256,38.9997,23.95,60,6,5.23,MZ,1694454387
236,puerto aysen,-45.4,-72.7,8.02,76,100,3.09,CL,1694454376
237,khanabad,36.6825,69.1156,24.76,32,0,1.6,AF,1694454387
238,patterson,37.4716,-121.1297,27.81,20,8,2.88,US,1694454388
239,northwood,40.4728,-83.7324,24.13,59,0,2.06,US,1694454388
240,new plymouth,-39.0667,174.0833,7.95,77,52,7.92,NZ,1694454178
241,antsohihy,-14.8796,47.9875,23.48,69,12,0.6,MG,1694454388
242,dali,25.7,100.1833,17.07,96,95,0.81,CN,1694454389
243,lorengau,-2.0226,147.2712,26.21,86,94,4.57,PG,1694454389
244,beypazari,40.1675,31.9211,19.29,42,2,2.82,TR,1694454389
245,mangai,-4.05,19.5333,27.55,59,90,1.2,CD,1694454390
246,iguape,-24.7081,-47.5553,24.34,77,13,4.49,BR,1694454390
247,ozernyy,55.5802,32.4127,14.04,81,0,1.14,RU,1694454390
248,shache,38.4167,77.2406,27.62,17,0,2.78,CN,1694454390
249,al jawf,29.5,38.75,30.14,20,0,4.94,SA,1694454390
250,yashan,22.1975,109.9419,24.21,98,99,1.32,CN,1694454391
251,novyy urengoy,66.0833,76.6333,12.4,75,59,4.95,RU,1694454391
252,vail,32.0479,-110.712,36.03,28,23,0.89,US,1694454269
253,patan,27.6667,85.3333,23.21,88,75,0.45,NP,1694454392
254,shangrao,28.4532,117.9686,24.43,86,76,1.16,CN,1694454392
255,podgorenskiy,50.405,39.6429,13.55,58,89,2.59,RU,1694454392
256,riosucio,5.4216,-75.7032,23.34,65,98,0.84,CO,1694454392
257,almaty,43.25,76.95,20.95,56,100,2.0,KZ,1694454393
258,sisimiut,66.9395,-53.6735,5.57,78,100,5.28,GL,1694454393
259,maputo,-25.9653,32.5892,22.82,64,20,8.75,MZ,1694454393
260,san luis de la loma,17.2706,-100.8939,32.52,66,77,2.39,MX,1694454393
261,borazjan,29.2666,51.2159,33.77,64,0,1.06,IR,1694454394
262,selfoss,63.9331,-20.9971,8.91,48,18,4.83,IS,1694454394
263,freeport,40.6576,-73.5832,29.1,74,75,2.57,US,1694454115
264,salalah,17.0151,54.0924,28.05,89,40,4.12,OM,1694454394
265,jiuquan,39.7432,98.5174,21.67,21,34,3.88,CN,1694454395
266,port mathurin,-19.6833,63.4167,22.66,80,24,11.23,MU,1694454395
267,acarau,-2.8856,-40.12,26.55,82,0,11.82,BR,1694454395
268,senanga,-16.1167,23.2667,26.43,13,0,3.02,ZM,1694454395
269,nouadhibou,20.931,-17.0347,26.99,65,37,8.23,MR,1694454395
270,arno,60.1167,18.6333,15.44,84,98,3.24,SE,1694454396
271,haverfordwest,51.8017,-4.9691,18.77,89,81,3.8,GB,1694454396
272,bastia,42.6667,9.3333,24.05,75,0,1.03,FR,1694454318
273,jamestown,42.097,-79.2353,23.59,60,40,2.57,US,1694454273
274,anadyr,64.75,177.4833,4.28,93,20,2.0,RU,1694454397
275,pyshma,56.9523,63.2513,14.36,68,100,5.67,RU,1694454397
276,chernyshevskiy,63.0128,112.4714,5.66,92,99,2.37,RU,1694454397
277,polokwane,-23.9045,29.4688,24.47,19,0,2.06,ZA,1694454398
278,lethem,3.3803,-59.7968,37.15,32,20,7.92,GY,1694454398
279,barcelos,41.5388,-8.6151,22.73,80,52,1.94,PT,1694454398
280,viedma,-40.8135,-62.9967,16.65,41,100,7.19,AR,1694454398
281,zhezqazghan,47.7833,67.7667,12.73,61,82,12.79,KZ,1694454399
282,palmer,42.1584,-72.3287,27.18,71,75,0.0,US,1694454399
283,pangai,-19.8,-174.35,23.06,78,40,7.2,TO,1694454399
284,mermoz boabab,14.7065,-17.4758,32.31,70,40,2.06,SN,1694454399
285,enewetak,11.3474,162.3373,28.62,76,35,3.8,MH,1694454400
286,kovdor,67.5662,30.4758,10.61,74,78,2.24,RU,1694454400
287,gornyy,55.1153,83.9059,6.66,84,7,2.4,RU,1694454400
288,saint croix,17.7397,-64.7388,33.25,77,40,7.2,VI,1694454400
289,al musayyib,32.7833,44.2825,33.32,23,0,0.73,IQ,1694454400
290,klaksvik,62.2266,-6.589,9.51,86,36,14.3,FO,1694454401
291,kuala lipis,4.1842,102.0468,23.29,99,98,0.09,MY,1694454401
292,badger,64.8,-147.5333,7.95,93,100,3.09,US,1694454401
293,candolim,15.5181,73.7626,27.0,89,40,1.54,IN,1694454401
294,broken hill,-31.95,141.4333,11.16,59,0,3.19,AU,1694454402
295,sitka,57.0531,-135.33,15.94,59,75,5.14,US,1694454402
296,choibalsan,48.0667,114.5,5.69,57,59,3.37,MN,1694454402
297,nuuk,64.1835,-51.7216,4.34,87,75,4.63,GL,1694454330
298,hanzhong,33.0728,107.0303,18.25,96,100,0.16,CN,1694454403
299,naracoorte,-36.9579,140.7383,8.61,90,39,2.93,AU,1694454403
300,lichinga,-13.3128,35.2406,22.05,64,3,2.57,MZ,1694454403
301,santo antonio,-6.3106,-35.4789,29.93,42,2,9.03,BR,1694454403
302,boulsa,12.6675,-0.5758,32.68,48,97,2.64,BF,1694454404
303,rosarito,32.3333,-117.0333,30.51,81,83,3.89,MX,1694454404
304,antsiranana,-12.2787,49.2917,23.16,74,43,8.16,MG,1694454404
305,nanping,26.645,118.1736,23.51,94,89,1.11,CN,1694454404
306,corbie,49.9067,2.5068,21.83,83,100,3.6,FR,1694454405
307,pizarro,4.9533,-77.366,26.81,78,92,3.57,CO,1694454405
308,uvira,-3.4067,29.1458,24.63,84,99,0.53,CD,1694454406
309,nagqu,31.5,92.0,-0.91,94,95,1.39,CN,1694454406
310,pathein,16.7833,94.7333,24.64,97,100,2.74,MM,1694454122
311,kabompo,-13.5927,24.2008,23.5,17,40,1.07,ZM,1694454407
312,port elizabeth,-33.918,25.5701,9.16,87,75,5.14,ZA,1694454363
313,chonchi,-42.6128,-73.8092,13.4,63,32,3.33,CL,1694454407
314,arteche,12.2645,125.4048,25.13,91,94,2.24,PH,1694454407
315,trondheim,63.4305,10.3951,17.03,95,100,0.46,NO,1694454250
316,daru,-9.0763,143.2092,24.59,73,99,8.36,PG,1694454408
317,sola,-13.8833,167.55,25.17,79,34,7.12,VU,1694454408
318,sao joao da barra,-21.6403,-41.0511,28.05,75,47,8.3,BR,1694454408
319,maun,-19.9833,23.4167,27.31,15,5,7.15,BW,1694454359
320,saint joseph,39.7686,-94.8466,19.78,85,100,2.24,US,1694454156
321,susuman,62.7833,148.1667,0.9,83,59,1.97,RU,1694454409
322,toliara,-23.35,43.6667,23.17,88,0,2.24,MG,1694454409
323,prairie view,30.0933,-95.9877,34.19,43,9,2.98,US,1694454409
324,boguchany,58.3814,97.4531,5.21,78,6,0.97,RU,1694454410
325,felipe carrillo puerto,19.5833,-88.05,33.52,51,43,2.47,MX,1694454410
326,hartford city,40.4511,-85.37,26.12,58,69,3.13,US,1694454410
327,port macquarie,-31.4333,152.9167,7.72,86,34,2.76,AU,1694454410
328,namest nad oslavou,49.2073,16.1585,24.98,55,0,2.68,CZ,1694454411
329,usogorsk,63.4106,48.6872,10.59,87,34,1.4,RU,1694454411
330,mitu,1.1983,-70.1733,33.44,46,33,1.49,CO,1694454411
331,port blair,11.6667,92.75,25.02,94,75,3.09,IN,1694454411
332,zijinglu,34.76,112.9714,23.16,82,100,2.19,CN,1694454412
333,touros,-5.1989,-35.4608,28.05,60,10,8.61,BR,1694454412
334,port lincoln,-34.7333,135.8667,14.28,52,10,3.59,AU,1694454412
335,cabo san lucas,22.8909,-109.9124,34.78,70,28,2.68,MX,1694454412
336,bestobe,52.4994,73.0975,15.12,82,100,8.2,KZ,1694454413
337,haimen,23.1935,116.6142,24.94,89,100,0.84,CN,1694454413
338,prado,-17.3411,-39.2208,25.57,64,0,3.29,BR,1694454413
339,codrington,-38.2667,141.9667,10.93,82,100,4.51,AU,1694454413
340,sernur,56.9333,49.1536,10.51,79,67,2.93,RU,1694454413
341,ta`u,-14.2336,-169.5144,26.61,80,30,6.93,AS,1694454414
342,richards bay,-28.783,32.0377,17.9,83,40,10.78,ZA,1694454414
343,catio,11.2833,-15.25,27.46,80,100,3.52,GW,1694454414
344,floro,61.5996,5.0328,14.04,94,75,5.14,NO,1694454414
345,konarka,19.9,86.1167,28.22,84,81,2.19,IN,1694454415
346,fegyvernek,47.2667,20.5333,26.01,33,8,3.06,HU,1694454415
347,vila franca do campo,37.7167,-25.4333,24.23,74,70,0.55,PT,1694454415
348,vallenar,-28.5708,-70.7581,25.88,14,100,4.76,CL,1694454132
349,swakopmund,-22.6833,14.5333,16.47,75,0,8.05,NA,1694454416
350,noventa vicentina,45.2957,11.5469,26.85,44,1,1.51,IT,1694454416
351,loushanguan,28.1375,106.82,22.27,90,100,0.92,CN,1694454416
352,djambala,-2.5447,14.7533,24.84,63,96,2.76,CG,1694454417
353,caleta de carquin,-11.0925,-77.6267,21.92,71,59,5.62,PE,1694454417
354,fonte boa,-2.4959,-66.2662,30.82,65,94,1.05,BR,1694454417
355,egilsstadir,65.2653,-14.3948,5.95,65,40,5.66,IS,1694454417
356,las palmas de gran canaria,28.0997,-15.4134,26.54,69,40,9.26,ES,1694454167
357,lilienthal,53.1657,8.9293,25.97,61,0,3.6,DE,1694454418
358,balkanabat,39.5108,54.3671,22.45,35,1,2.43,TM,1694454418
359,urangan,-25.3,152.9,18.02,69,43,7.48,AU,1694454418
360,yekaterinoslavka,50.3734,129.1139,8.09,94,100,6.57,RU,1694454418
361,lamarque,-39.423,-65.7021,16.38,21,24,15.84,AR,1694454418
362,crane,31.3974,-102.3501,33.39,32,84,7.91,US,1694454419
363,khorramabad,33.4878,48.3558,25.79,17,0,2.06,IR,1694454419
364,pacific grove,36.6177,-121.9166,20.11,87,0,4.12,US,1694454419
365,harar,9.3094,42.1258,16.37,87,44,2.78,ET,1694454419
366,gorontalo,0.5412,123.0595,24.41,95,96,1.49,ID,1694454420
367,chinsali,-10.5414,32.0816,25.98,35,58,1.81,ZM,1694454420
368,whitecourt,54.1502,-115.6855,13.58,71,75,2.06,CA,1694454393
369,camayenne,9.535,-13.6878,28.05,83,40,4.12,GN,1694454420
370,niigata,37.9022,139.0236,23.84,78,50,2.36,JP,1694454420
371,broome,42.2506,-75.833,22.78,84,100,3.58,US,1694454421
372,xiaoweizhai,26.1903,107.5125,21.4,98,100,1.4,CN,1694454421
373,muisne,0.6,-80.0333,26.41,74,78,4.94,EC,1694454421
374,okhotsk,59.3833,143.3,6.99,56,93,0.36,RU,1694454422
375,dwarka,22.2394,68.9678,27.26,83,28,5.45,IN,1694454422
376,constantia,44.1833,28.65,19.38,58,47,4.17,RO,1694454261
377,chegdomyn,51.1167,133.0167,13.15,98,99,0.99,RU,1694454422
378,tahe,52.3333,124.7333,6.38,61,99,5.22,CN,1694454423
379,aioun,16.6614,-9.6149,38.05,26,66,0.8,MR,1694454423
380,hirekerur,14.4667,75.3833,21.16,95,100,4.47,IN,1694454423
381,molde,62.7375,7.1591,16.5,88,75,9.26,NO,1694454423
382,puerto madero,14.7208,-92.4215,29.66,68,28,2.42,MX,1694454424
383,buka,40.8108,69.1986,17.85,31,19,2.76,UZ,1694454424
384,kerikeri,-35.2268,173.9474,5.51,94,16,1.52,NZ,1694454424
385,makhambet,47.6667,51.5833,16.9,44,72,1.76,KZ,1694454424
386,berwick-upon-tweed,55.7833,-2.0,18.02,68,100,3.79,GB,1694454425
387,nezhinka,51.7676,55.3694,9.09,93,40,3.13,RU,1694454425
388,nhlangano,-27.1167,31.2,13.78,74,2,3.34,SZ,1694454425
389,antalaha,-14.9003,50.2788,20.71,86,23,2.41,MG,1694454425
390,ocean city,39.2776,-74.5746,28.14,82,5,0.45,US,1694454395
391,puerto deseado,-47.7503,-65.8938,10.77,45,98,1.05,AR,1694454426
392,peterhead,57.5058,-1.7981,14.14,76,76,6.08,GB,1694454426
393,khairpur,27.5295,68.7617,32.0,39,5,5.79,PK,1694454426
394,rio grande,-32.035,-52.0986,31.06,85,89,6.65,BR,1694454304
395,pangoa,-12.1167,-73.0,35.68,27,31,2.69,PE,1694454427
396,nemuro,43.3236,145.575,18.19,99,100,4.93,JP,1694454427
397,sirre,8.3167,39.4833,17.51,81,97,3.52,ET,1694454427
398,contamana,-7.3333,-75.0167,37.09,33,100,0.43,PE,1694454427
399,polyarnyy,69.1989,33.4478,11.49,64,68,3.81,RU,1694454428
400,upata,8.0086,-62.3989,36.67,30,19,2.8,VE,1694454428
401,corner brook,48.9667,-57.9484,16.09,98,100,1.42,CA,1694454416
402,turaif,31.6725,38.6637,29.14,18,0,2.06,SA,1694454429
403,norfolk,42.1668,-71.2495,26.6,89,100,1.54,US,1694454429
404,alappuzha,9.49,76.3264,25.75,86,97,3.77,IN,1694454429
405,iringal,11.5593,75.611,25.2,88,100,1.9,IN,1694454429
406,ust'-kulom,61.6864,53.6902,10.12,88,63,1.07,RU,1694454430
407,masterton,-40.9597,175.6575,11.05,80,82,4.25,NZ,1694454430
408,linqiong,30.4159,103.4609,20.9,79,100,3.95,CN,1694454430
409,franklin,39.9667,-83.0166,26.53,59,75,3.09,US,1694454157
410,genhe,50.7833,121.5167,2.97,95,61,1.23,CN,1694454430
411,pyapon,16.2833,95.6833,24.74,96,100,4.97,MM,1694454431
412,vredendal,-31.6683,18.5012,10.2,59,2,5.13,ZA,1694454431
413,magaria,12.9983,8.9099,35.06,27,73,1.96,NE,1694454431
414,qusmuryn,52.4503,64.6311,13.36,91,100,8.98,KZ,1694454431
415,keningau,5.3378,116.1602,22.15,98,99,0.75,MY,1694454432
416,cooper's town,26.8667,-77.5167,28.86,71,0,2.74,BS,1694454432
417,hasaki,35.7333,140.8333,25.22,78,86,3.23,JP,1694454392
418,howard springs,-12.497,131.047,21.95,77,33,0.56,AU,1694454432
419,ocean shores,46.9737,-124.1563,19.42,91,99,1.79,US,1694454349
420,whitehorse,60.7161,-135.0538,12.83,60,75,4.12,CA,1694454433
421,tremonton,41.7119,-112.1655,26.12,41,2,1.79,US,1694454433
422,margate,51.3813,1.3862,22.15,80,82,2.68,GB,1694454433
423,merizo village,13.2658,144.6691,27.31,95,100,5.76,GU,1694454433
424,khandyga,62.6667,135.6,0.91,96,82,1.41,RU,1694454433
425,kalininsk,51.5,44.4758,14.15,52,98,3.59,RU,1694454434
426,muynoq,43.7683,59.0214,18.13,49,29,5.18,UZ,1694454434
427,salekhard,66.53,66.6019,11.35,78,27,3.47,RU,1694454434
428,jayapura,-2.5333,140.7,24.66,90,72,2.3,ID,1694454434
429,ferokh,11.1833,75.85,23.58,88,75,3.6,IN,1694454435
430,vernon,50.2581,-119.2691,24.02,45,100,0.51,CA,1694454193
431,tromso,69.6496,18.957,10.01,81,75,2.06,NO,1694454435
432,bhamo,24.2667,97.2333,24.52,97,100,0.61,MM,1694454435
433,flying fish cove,-10.4217,105.6791,24.82,88,100,4.63,CX,1694454329
434,kofele,7.0667,38.7833,11.33,96,100,2.39,ET,1694454436
435,pandan,14.0453,124.1694,26.7,84,96,2.52,PH,1694454436
436,mukalla,14.5425,49.1242,32.87,53,61,1.42,YE,1694454436
437,stung treng,13.5259,105.9683,23.92,97,100,0.83,KH,1694454436
438,sao felix do xingu,-6.6447,-51.995,40.59,17,7,1.48,BR,1694454437
439,bonthe,7.5264,-12.505,26.82,77,79,3.37,SL,1694454437
440,papao,-17.75,-149.55,23.82,92,36,5.36,PF,1694454437
441,labuan,5.2767,115.2417,24.2,94,40,2.68,MY,1694454437
442,baihe,22.15,107.2333,24.22,98,100,0.37,CN,1694454438
443,nazarabad,35.9521,50.6075,23.45,52,0,3.15,IR,1694454438
444,necochea,-38.5473,-58.7368,9.57,97,100,4.43,AR,1694454166
445,al miqdadiyah,33.9786,44.9369,33.59,24,0,3.63,IQ,1694454438
446,kyaikkami,16.08,97.5675,25.74,93,100,8.82,MM,1694454438
447,kailua-kona,19.6406,-155.9956,25.98,82,75,2.06,US,1694454336
448,terespol,52.0755,23.6161,20.54,48,1,0.85,PL,1694454232
449,yorkton,51.2167,-102.4677,14.91,55,0,6.69,CA,1694454230
450,tubarjal,30.4999,38.216,30.61,19,0,2.96,SA,1694454439
451,jumla,29.2747,82.1838,15.74,86,100,1.76,NP,1694454439
452,rodolfo sanchez taboada,31.7167,-116.5667,22.28,83,97,3.01,MX,1694454440
453,coquimbo,-29.9533,-71.3436,20.85,52,0,6.17,CL,1694454392
454,saudarkrokur,65.7461,-19.6394,5.85,59,12,2.0,IS,1694454440
455,port said,31.2565,32.2841,26.99,83,0,4.12,EG,1694454441
456,lospalos,-8.5186,127.0025,20.29,94,20,2.31,TL,1694454441
457,novoarkhanhel's'k,48.658,30.8182,18.5,32,86,2.02,UA,1694454441
458,mwinilunga,-11.7358,24.4293,22.41,21,61,1.09,ZM,1694454442
459,qui nhon,13.7667,109.2333,27.05,77,98,4.32,VN,1694454442
460,arkhangel'sk,64.5401,40.5433,15.79,79,100,2.01,RU,1694454442
461,port augusta,-32.5,137.7667,10.97,64,2,1.39,AU,1694454442
462,saldanha,-33.0117,17.9442,11.43,53,6,5.91,ZA,1694454442
463,canmore,51.0834,-115.3521,19.34,47,99,2.06,CA,1694454177
464,melekeok village,7.4957,134.6367,27.31,83,100,5.14,PW,1694454443
465,preobrazheniye,42.9019,133.9064,18.55,95,98,1.49,RU,1694454443
466,hirara,24.8,125.2833,26.92,89,20,5.14,JP,1694454443
467,ksar el kebir,35.0017,-5.9053,24.64,60,80,4.82,MA,1694454444
468,tofol,5.3248,163.0078,27.53,76,47,2.8,FM,1694454444
469,kantabanji,20.4833,82.9167,24.64,92,100,2.56,IN,1694454444
470,kayes,14.0,-11.0,32.52,55,86,1.55,ML,1694454444
471,lerwick,60.1545,-1.1494,12.0,77,72,5.95,GB,1694454444
472,saint augustine beach,29.8505,-81.2654,35.03,70,40,4.63,US,1694454445
473,vlissingen,51.4425,3.5736,21.78,91,87,3.6,NL,1694454445
474,coyhaique,-45.5752,-72.0662,8.34,61,75,2.57,CL,1694454393
475,esmeraldas,-19.7625,-44.3139,27.63,25,0,4.72,BR,1694454445
476,balkashino,52.5167,68.7667,12.61,90,100,8.76,KZ,1694454446
477,fallon,39.4735,-118.7774,28.29,35,40,1.54,US,1694454446
478,pustoshka,56.3355,29.369,15.73,75,5,2.39,RU,1694454446
479,amos,48.5669,-78.1162,19.99,48,13,2.61,CA,1694454446
480,veraval,20.9,70.3667,27.15,83,75,5.03,IN,1694454447
481,urzhar,47.093,81.6294,22.34,43,51,1.28,KZ,1694454447
482,kone,-21.0595,164.8658,17.47,91,7,2.18,NC,1694454447
483,sergeyevka,53.88,67.4158,13.2,71,100,10.16,KZ,1694454447
484,borogontsy,62.6683,131.1683,1.78,97,95,1.33,RU,1694454448
485,belyy yar,53.6039,91.3903,11.94,87,0,0.0,RU,1694454448
486,kayangel,8.0823,134.7173,27.4,79,96,7.26,PW,1694454448
487,san ramon de la nueva oran,-23.1322,-64.326,38.01,20,0,1.61,AR,1694454448
488,revda,56.801,59.9303,11.09,85,100,3.61,RU,1694454449
489,wanning,18.8003,110.3967,26.58,87,100,3.78,CN,1694454449
490,isla vista,34.4133,-119.861,31.1,69,0,2.06,US,1694454449
491,zhangye,38.9342,100.4517,19.62,30,36,2.57,CN,1694454449
492,roswell,34.0232,-84.3616,32.55,61,40,1.03,US,1694454189
493,siwa oasis,29.2041,25.5195,26.33,50,1,6.55,EG,1694454450
494,shitanjing,39.2342,106.3439,18.32,37,2,2.54,CN,1694454450
495,roma,43.2128,-75.4557,21.64,87,100,3.09,US,1694454318
496,nefta,33.8731,7.8777,36.14,25,64,3.72,TN,1694454450
497,island harbour,50.724,-1.2758,22.31,87,100,2.24,GB,1694454451
498,vila velha,-20.3297,-40.2925,26.97,75,20,6.69,BR,1694454451
499,tamulte de las sabanas,18.2167,-92.7833,28.94,84,99,0.83,MX,1694454451
500,griffith,41.5284,-87.4237,20.12,92,100,3.09,US,1694454434
501,padangsidempuan,1.3667,99.2667,22.9,98,90,0.67,ID,1694454452
502,hacilar,38.6463,35.4494,16.83,34,0,4.63,TR,1694454452
503,batamshinskiy,50.5594,58.2747,8.53,86,100,6.07,KZ,1694454453
504,natal,-5.795,-35.2094,30.12,51,20,8.23,BR,1694454453
505,kolonia,50.9333,6.95,27.75,59,0,2.57,DE,1694454370
506,barra,-11.0894,-43.1417,32.0,34,0,3.0,BR,1694454453
507,nizhniy kuranakh,58.8353,125.4869,0.19,93,13,0.77,RU,1694454453
508,satkania,22.0796,92.0572,28.99,97,100,1.85,BD,1694454454
509,totness,5.8833,-56.3167,29.54,70,80,5.22,SR,1694454454
510,al bayda',32.7627,21.7551,18.63,74,99,10.38,LY,1694454454
511,barra de santo antonio,-9.4047,-35.5072,25.6,73,27,5.16,BR,1694454455
512,pontarlier,46.8333,6.25,22.08,69,48,0.55,FR,1694454455
513,nuku'alofa,-21.1333,-175.2,22.19,78,20,5.14,TO,1694454455
514,nanyuki,0.0167,37.0728,17.31,74,99,1.12,KE,1694454455
515,uliastay,47.7417,96.8444,10.49,39,99,2.39,MN,1694454456
516,al ghayzah,16.2079,52.176,27.67,88,79,7.05,YE,1694454456
517,taroa,8.7058,171.2275,28.6,80,87,9.13,MH,1694454456
518,buckhannon,38.994,-80.232,25.03,70,20,2.57,US,1694454456
519,namsos,64.4662,11.4957,16.95,88,75,3.09,NO,1694454457
520,antonio enes,-16.2325,39.9086,24.73,79,1,7.6,MZ,1694454457
521,greymouth,-42.4667,171.2,8.0,76,72,4.36,NZ,1694454457
522,galliano,29.4422,-90.2992,33.89,51,0,2.06,US,1694454457
523,smithers,54.7804,-127.1743,13.18,58,40,3.09,CA,1694454458
524,maracacume,-2.0428,-45.9592,30.99,53,80,2.99,BR,1694454458
525,victoriaville,46.0501,-71.9658,20.27,65,65,2.4,CA,1694454458
526,anar darah,32.7587,61.654,26.03,37,0,5.29,AF,1694454458
527,belomorsk,64.5232,34.7668,16.71,83,100,2.92,RU,1694454459
528,whakatane,-37.9585,176.9854,10.28,99,63,2.53,NZ,1694454459
529,east ballina,-28.8667,153.5833,10.44,87,18,4.16,AU,1694454459
530,ringkobing,56.0901,8.244,20.57,94,79,4.4,DK,1694454459
531,phan thiet,10.9333,108.1,24.9,87,64,4.05,VN,1694454459
532,ambodifotatra,-16.9833,49.85,24.07,70,15,4.2,MG,1694454460
533,jaru,-10.4389,-62.4664,38.15,27,34,2.52,BR,1694454460
534,talara,-4.5772,-81.2719,27.42,57,0,7.98,PE,1694454460
535,sovetskaya gavan',48.9723,140.2878,16.93,99,100,2.94,RU,1694454460
536,souillac,-20.5167,57.5167,24.21,73,40,4.63,MU,1694454461
537,pishva,35.308,51.7267,30.32,23,0,2.92,IR,1694454461
538,novodvinsk,64.4165,40.8122,14.84,84,91,1.98,RU,1694454461
539,moyynkum,44.2914,72.9469,18.69,33,88,6.81,KZ,1694454461
540,tommot,58.9564,126.2925,0.2,95,33,0.37,RU,1694454462
541,keflavik,64.0049,-22.5624,10.24,40,0,4.12,IS,1694454462
542,timbiqui,2.7717,-77.6654,28.42,77,66,3.52,CO,1694454462
543,apple valley,34.5008,-117.1859,29.33,48,58,1.31,US,1694454462
544,gamba,-2.65,10.0,23.17,84,94,3.35,GA,1694454463
545,codajas,-3.8367,-62.0569,37.11,33,80,0.88,BR,1694454463
546,taulaga,-11.0553,-171.0883,28.14,74,94,5.25,AS,1694454463
547,guerrero negro,27.9769,-114.0611,26.88,61,8,4.28,MX,1694454463
548,periyapatti,10.75,77.2667,24.56,69,100,8.2,IN,1694454464
549,peruibe,-24.32,-46.9983,25.15,74,7,2.85,BR,1694454464
550,obsharovka,53.125,48.8531,10.88,87,89,3.32,RU,1694454464
551,zaozersk,69.4005,32.4476,11.87,62,64,2.83,RU,1694454464
552,ust'-ilimsk,58.0006,102.6619,4.54,78,14,0.88,RU,1694454464
553,varde,55.6211,8.4807,22.37,93,44,4.12,DK,1694454465
554,lazaro cardenas,17.9583,-102.2,30.44,68,11,2.43,MX,1694454465
555,san-pedro,4.7485,-6.6363,25.23,87,71,3.04,CI,1694454465
556,benjamin constant,-4.3831,-70.0311,30.07,79,75,2.06,BR,1694454465
557,sao paulo de olivenca,-3.3783,-68.8725,33.67,49,100,0.75,BR,1694454466
558,sainyabuli,19.25,101.75,22.48,99,92,1.02,LA,1694454466
559,codo,-4.4553,-43.8856,39.12,21,9,2.69,BR,1694454466
560,vila do maio,15.1333,-23.2167,27.44,82,69,4.85,CV,1694454466
561,west livingston,30.6983,-95.0019,33.03,45,29,2.0,US,1694454466
562,port douglas,-16.4833,145.4667,22.11,72,40,8.68,AU,1694454467
563,zeya,53.75,127.2667,5.46,94,100,5.13,RU,1694454467
564,darwin,-12.4611,130.8418,21.99,88,33,1.03,AU,1694454302
565,mount isa,-20.7333,139.5,18.87,20,4,4.63,AU,1694454467
566,tsiombe,-25.3,45.4833,22.01,79,0,2.22,MG,1694454468
567,dalandzadgad,43.5708,104.425,14.6,32,93,4.84,MN,1694454468
568,hokuto,41.8848,140.639,23.23,96,88,0.17,JP,1694454468
569,kabala,9.5833,-11.55,24.95,94,85,1.45,SL,1694454468
570,kamaishi,39.2667,141.8833,23.94,97,85,3.36,JP,1694454469
571,eregli,37.5133,34.0467,18.96,23,73,1.37,TR,1694454469
572,sirte,31.2089,16.5887,25.79,58,5,5.27,LY,1694454469
573,rechka-vydrino,51.485,104.8461,8.73,73,5,1.4,RU,1694454469
574,ixtapa,20.7,-105.2,32.35,71,9,2.68,MX,1694454470
575,peniche,39.3558,-9.3811,22.82,89,4,2.02,PT,1694454470
576,holualoa,19.6228,-155.9522,23.91,82,75,2.06,US,1694454358
577,illizi,26.4833,8.4667,34.89,17,0,3.42,DZ,1694454470
578,severo-yeniseyskiy,60.3725,93.0408,3.64,86,17,0.36,RU,1694454471
579,madimba,-10.4,40.3333,25.62,78,20,5.14,TZ,1694454471
580,izki,22.9333,57.7667,30.68,41,68,3.78,OM,1694454471
581,kapa'a,22.0752,-159.319,24.5,84,40,6.17,US,1694454244
